[
  {
    "storeName": "MENY Borups Alle",
    "latitude": 55.69405,
    "longitude": 12.531796
  },
  {
    "storeName": "MENY \u00d8sterf\u00e6lled Torv",
    "latitude": 55.705885,
    "longitude": 12.575967
  },
  {
    "storeName": "MENY Bryggervangen",
    "latitude": 55.71003,
    "longitude": 12.56415
  },
  {
    "storeName": "MENY Domus Vista",
    "latitude": 55.671291,
    "longitude": 12.501477
  },
  {
    "storeName": "MENY Vermlandsgade 51",
    "latitude": 55.668208,
    "longitude": 12.606145
  },
  {
    "storeName": "MENY Frederiksborgvej 86",
    "latitude": 55.708325,
    "longitude": 12.532031
  },
  {
    "storeName": "MENY Centerparken 34",
    "latitude": 55.654431,
    "longitude": 12.488608
  },
  {
    "storeName": "MENY Valby",
    "latitude": 55.661121,
    "longitude": 12.516068
  },
  {
    "storeName": "MENY Taastrup",
    "latitude": 55.642172,
    "longitude": 12.310272
  },
  {
    "storeName": "MENY Karlslunde",
    "latitude": 55.566969,
    "longitude": 12.269121
  }
]