[
  {
    "storeName": "SuperBrugsen Finsensvej",
    "latitude": 55.68143,
    "longitude": 12.5191908
  },
  {
    "storeName": "SuperBrugsen Borgergade",
    "latitude": 55.68522,
    "longitude": 12.5867758
  },
  {
    "storeName": "SuperBrugsen Hammelstrupvej",
    "latitude": 55.64805,
    "longitude": 12.5268764
  },
  {
    "storeName": "SuperBrugsen Herstedvester",
    "latitude": 55.6704254,
    "longitude": 12.3389063
  },
  {
    "storeName": "SuperBrugsen Hvals\u00c3\u00b8",
    "latitude": 55.5916176,
    "longitude": 11.8615417
  },
  {
    "storeName": "SuperBrugsen Karlslunde",
    "latitude": 55.5716476,
    "longitude": 12.226757
  },
  {
    "storeName": "SuperBrugsen Halmtorvet",
    "latitude": 55.66886,
    "longitude": 12.5578651
  },
  {
    "storeName": "SuperBrugsen N\u00c3\u00b8rrebrogade",
    "latitude": 55.68954,
    "longitude": 12.5559053
  },
  {
    "storeName": "SuperBrugsen \u00c3\u2026lekistevej",
    "latitude": 55.68258,
    "longitude": 12.4837465
  },
  {
    "storeName": "SuperBrugsen Vallensb\u00c3\u00a6k",
    "latitude": 55.6230049,
    "longitude": 12.3880653
  }
]